[
    {
        "name": "Florida Avenue Grill",
        "image": "http://4.bp.blogspot.com/-twfQkYkhOHI/UXwAhnHGpUI/AAAAAAAADYk/yaHwhhbOZsg/s1600/Florda+Grill+-+U+Street+-+Cemeteries+025.JPG",
        "fullAddress": "1100 Florida Ave NW, Washington, DC 20009",
        "lat": 38.920740,
        "lng": -77.027379,
        "address": "1100 Florida Ave NW",
        "city": "Washington",
        "state": "DC",
        "zip": "20009",
        "phone": "202.265.1586",
        "website": "http://floridaavenuegrill.com/",
        "menuItem": "World Famous Hot Cakes",
        "parking": "No",
        "kids": "Yes",
        "dogs": "No",
        "type": "diner"
    },
    {
        "name": "Double T Diner",
        "image": "https://media-cdn.tripadvisor.com/media/photo-s/01/d3/f1/58/double-t-diner.jpg",
        "fullAddress": "10055 Baltimore National Pike, Ellicott City, MD 21042",
        "lat": 39.278920,
        "lng": -76.858623,
        "address": "10055 Baltimore National Pike",
        "city": "Ellicott City",
        "state": "MD",
        "zip": "21042",
        "phone": "410.750.3300",
        "website": "http://doubletellicottcity.com/",
        "menuItem": "Stuffed Flounder",
        "parking": "Yes",
        "kids": "Yes",
        "dogs": "No",
        "type": "diner"
    },
    {
        "name": "Decatur Diner",
        "image": "https://cdn.patchcdn.com/users/701504/2011/11/T800x600/586c26ba562b5b0e30e36a0b01b5a7fb.jpg",
        "fullAddress": "9609 Stephen Decatur Hwy, Ocean City, MD 21842",
        "lat": 38.326861,
        "lng": -75.119509,
        "address": "9609 Stephen Decatur Hwy",
        "city": "Ocean City",
        "state": "MD",
        "zip": "21842",
        "phone": "443.664.6779",
        "website": "https://www.facebook.com/pg/decatur.diner.1/about/?ref=page_internal",
        "menuItem": "The Pipeline",
        "parking": "Yes",
        "kids": "Yes",
        "dogs": "No",
        "type": "diner"
    },
    {
        "name": "Hightstown Diner",
        "image": "https://c1.staticflickr.com/1/593/21167934352_ba0cdfc5fb_b.jpg",
        "fullAddress": "151 Mercer St, Hightstown, NJ 08520",
        "lat": 40.268815,
        "lng": -74.525401,
        "address": "151 Mercer St",
        "city": "Hightstown",
        "state": "NJ",
        "zip": "08520",
        "phone": "609.443.4600",
        "website": "https://www.facebook.com/pg/thehightstowndiner/about/",
        "menuItem": "Corned Beef Hash",
        "parking": "Yes",
        "kids": "Yes",
        "dogs": "No",
        "type": "diner"
    },
    {
        "name": "Woodstown Diner",
        "image": "https://c1.staticflickr.com/5/4069/4474461197_2f18a102ee_b.jpg",
        "fullAddress": "16 East Ave, Woodstown, NJ 08098",
        "lat": 39.651495,
        "lng": -75.327132,
        "address": "16 East Ave",
        "city": "Woodstown",
        "state": "NJ",
        "zip": "08098",
        "phone": "856.769.1140",
        "website": "https://www.facebook.com/pages/Woodstown-Diner/104964036213097",
        "menuItem": "Creamed Chipped Beef",
        "parking": "Yes",
        "kids": "Yes",
        "dogs": "No",
        "type": "diner"
    },
    {
        "name": "Lapp's Olympia Dairy Bar",
        "image": "https://c1.staticflickr.com/8/7363/13998381488_964db21ac3_b.jpg",
        "fullAddress": "1073 US-40, Penns Grove, NJ 08069",
        "lat": 39.679421,
        "lng": -75.405929,
        "address": "1073 US-40",
        "city": "Penns Grove",
        "state": "NJ",
        "zip": "08069",
        "phone": "856.514.3448",
        "website": "https://www.facebook.com/pages/category/Fast-Food-Restaurant/Lapps-Olympia-Dairy-Bar-127983260571520/",
        "menuItem": "Pulled Pork Sandwich",
        "parking": "Yes",
        "kids": "Yes",
        "dogs": "Yes",
        "type": "diner"
    },
    {
        "name": "Minella's Diner",
        "image": "https://s3-media3.fl.yelpcdn.com/bphoto/ELcI-qw8CmWMZplacm1N4w/o.jpg",
        "fullAddress": "320 W Lancaster Ave, Wayne, PA 19087",
        "lat": 40.044185,
        "lng": -75.395223,
        "address": "320 W Lancaster Ave",
        "city": "Wayne",
        "state": "PA",
        "zip": "19087",
        "phone": "610.687.1575",
        "website": "http://www.minellasdiner.com/",
        "menuItem": "Gravy Fries",
        "parking": "Yes",
        "kids": "Yes",
        "dogs": "No",
        "type": "diner"
    }
]